[
  {
    "osm_id": "node/302716344",
    "nombre": "La Cerveceria Kunstmann",
    "direccion": "Ruta T-350 950",
    "sector": "Centro",
    "lat": -39.8369898,
    "lon": -73.2782696,
    "categoria_id": 3,
    "telefono": "+56 63 292969",
    "instagram": null,
    "horario": null,
    "revisar": true,
    "amenity": "restaurant",
    "cuisine": "german"
  },
  {
    "osm_id": "node/529774160",
    "nombre": "Bar Doña Inés",
    "direccion": "Carampangue 190",
    "sector": "Centro",
    "lat": -39.8116677,
    "lon": -73.2460862,
    "categoria_id": 2,
    "telefono": null,
    "instagram": null,
    "horario": null,
    "revisar": true,
    "amenity": "bar",
    "cuisine": null
  },
  {
    "osm_id": "node/529774238",
    "nombre": "Capuccino Co.",
    "direccion": "Arauco 561",
    "sector": "Centro",
    "lat": -39.8166088,
    "lon": -73.2425767,
    "categoria_id": 4,
    "telefono": null,
    "instagram": null,
    "horario": null,
    "revisar": false,
    "amenity": "cafe",
    "cuisine": null
  },
  {
    "osm_id": "node/529774456",
    "nombre": "Papa John's",
    "direccion": "Avenida Ramón Picarte 903",
    "sector": "Centro",
    "lat": -39.8163291,
    "lon": -73.2365503,
    "categoria_id": 3,
    "telefono": null,
    "instagram": null,
    "horario": null,
    "revisar": true,
    "amenity": "fast_food",
    "cuisine": "pizza"
  },
  {
    "osm_id": "node/529775424",
    "nombre": "Moro's",
    "direccion": "Paseo Libertad",
    "sector": "Centro",
    "lat": -39.813678,
    "lon": -73.2466936,
    "categoria_id": 4,
    "telefono": null,
    "instagram": null,
    "horario": null,
    "revisar": false,
    "amenity": "cafe",
    "cuisine": "coffee_shop"
  },
  {
    "osm_id": "node/529775528",
    "nombre": "Café de Luis",
    "direccion": "Maipú",
    "sector": "Centro",
    "lat": -39.8147547,
    "lon": -73.2465132,
    "categoria_id": 4,
    "telefono": null,
    "instagram": null,
    "horario": null,
    "revisar": false,
    "amenity": "cafe",
    "cuisine": null
  },
  {
    "osm_id": "node/529775535",
    "nombre": "Café Palace",
    "direccion": "O'Higgins 580",
    "sector": "Centro",
    "lat": -39.8150614,
    "lon": -73.2463469,
    "categoria_id": 4,
    "telefono": null,
    "instagram": null,
    "horario": null,
    "revisar": false,
    "amenity": "cafe",
    "cuisine": null
  },
  {
    "osm_id": "node/529775572",
    "nombre": "Cava del Buho",
    "direccion": "Avenida Alemania 660",
    "sector": "Centro",
    "lat": -39.8128843,
    "lon": -73.2399231,
    "categoria_id": 3,
    "telefono": null,
    "instagram": null,
    "horario": null,
    "revisar": true,
    "amenity": "restaurant",
    "cuisine": null
  },
  {
    "osm_id": "node/529776371",
    "nombre": "Shanghai",
    "direccion": "Carlos Anwandter",
    "sector": "Centro",
    "lat": -39.8151497,
    "lon": -73.2365507,
    "categoria_id": 3,
    "telefono": null,
    "instagram": null,
    "horario": null,
    "revisar": true,
    "amenity": "restaurant",
    "cuisine": "chinese"
  },
  {
    "osm_id": "node/1183468453",
    "nombre": "Otto Sandwich",
    "direccion": "Gabriela Mistral",
    "sector": "Centro",
    "lat": -39.8106438,
    "lon": -73.2507764,
    "categoria_id": 3,
    "telefono": null,
    "instagram": null,
    "horario": null,
    "revisar": true,
    "amenity": "fast_food",
    "cuisine": "sandwich"
  },
  {
    "osm_id": "node/1314278176",
    "nombre": "Doggis",
    "direccion": "Arauco 561",
    "sector": "Centro",
    "lat": -39.8167786,
    "lon": -73.2422127,
    "categoria_id": 3,
    "telefono": null,
    "instagram": null,
    "horario": null,
    "revisar": true,
    "amenity": "fast_food",
    "cuisine": "sandwich"
  },
  {
    "osm_id": "node/1314278204",
    "nombre": "KFC",
    "direccion": "Arauco 561",
    "sector": "Centro",
    "lat": -39.8166505,
    "lon": -73.2420607,
    "categoria_id": 3,
    "telefono": null,
    "instagram": null,
    "horario": null,
    "revisar": true,
    "amenity": "fast_food",
    "cuisine": "chicken"
  },
  {
    "osm_id": "node/1314280645",
    "nombre": "Al Capone",
    "direccion": "Carampangue 190",
    "sector": "Centro",
    "lat": -39.8116436,
    "lon": -73.2464177,
    "categoria_id": 3,
    "telefono": null,
    "instagram": null,
    "horario": null,
    "revisar": true,
    "amenity": "restaurant",
    "cuisine": null
  },
  {
    "osm_id": "node/1314280646",
    "nombre": "Lucky 7",
    "direccion": "Carampangue 190",
    "sector": "Centro",
    "lat": -39.8115282,
    "lon": -73.2462354,
    "categoria_id": 2,
    "telefono": null,
    "instagram": null,
    "horario": null,
    "revisar": true,
    "amenity": "bar",
    "cuisine": null
  },
  {
    "osm_id": "node/1314280647",
    "nombre": "Sky Bar",
    "direccion": "Carampangue 190",
    "sector": "Centro",
    "lat": -39.8114858,
    "lon": -73.2465722,
    "categoria_id": 2,
    "telefono": null,
    "instagram": null,
    "horario": null,
    "revisar": true,
    "amenity": "bar",
    "cuisine": null
  },
  {
    "osm_id": "node/1314281558",
    "nombre": "Pub Restobar Strike",
    "direccion": "Carampangue 208",
    "sector": "Centro",
    "lat": -39.8117776,
    "lon": -73.2455649,
    "categoria_id": 2,
    "telefono": null,
    "instagram": null,
    "horario": null,
    "revisar": true,
    "amenity": "bar",
    "cuisine": null
  },
  {
    "osm_id": "node/1314295150",
    "nombre": "Villa del Río",
    "direccion": "Avenida España 1025",
    "sector": "Centro",
    "lat": -39.8079007,
    "lon": -73.2359182,
    "categoria_id": 3,
    "telefono": null,
    "instagram": null,
    "horario": null,
    "revisar": true,
    "amenity": "restaurant",
    "cuisine": null
  },
  {
    "osm_id": "node/1314295159",
    "nombre": "Alondra",
    "direccion": "Avenida Arturo Prat 425",
    "sector": "Centro",
    "lat": -39.8132047,
    "lon": -73.2480025,
    "categoria_id": 3,
    "telefono": null,
    "instagram": null,
    "horario": null,
    "revisar": true,
    "amenity": "restaurant",
    "cuisine": null
  },
  {
    "osm_id": "node/1314295160",
    "nombre": "Quo Vadis",
    "direccion": "Esmeralda 693",
    "sector": "Centro",
    "lat": -39.8161847,
    "lon": -73.2436815,
    "categoria_id": 3,
    "telefono": null,
    "instagram": null,
    "horario": null,
    "revisar": true,
    "amenity": "restaurant",
    "cuisine": null
  },
  {
    "osm_id": "node/1314310293",
    "nombre": "Club De La Unión",
    "direccion": "Camilo Henríquez 540",
    "sector": "Centro",
    "lat": -39.8146519,
    "lon": -73.2455283,
    "categoria_id": 3,
    "telefono": null,
    "instagram": null,
    "horario": null,
    "revisar": true,
    "amenity": "restaurant",
    "cuisine": null
  },
  {
    "osm_id": "node/1314310309",
    "nombre": "La Cabaña",
    "direccion": "Letelier 236",
    "sector": "Centro",
    "lat": -39.8135854,
    "lon": -73.2458204,
    "categoria_id": 3,
    "telefono": null,
    "instagram": null,
    "horario": null,
    "revisar": true,
    "amenity": "restaurant",
    "cuisine": null
  },
  {
    "osm_id": "node/1361030117",
    "nombre": "Zona Zero",
    "direccion": "Lord Cochrane",
    "sector": "Centro",
    "lat": -39.8190884,
    "lon": -73.2477852,
    "categoria_id": 3,
    "telefono": null,
    "instagram": null,
    "horario": null,
    "revisar": true,
    "amenity": "fast_food",
    "cuisine": "sandwich"
  },
  {
    "osm_id": "node/1361030120",
    "nombre": "Zona Cero",
    "direccion": null,
    "sector": "Centro",
    "lat": -39.8189209,
    "lon": -73.2477799,
    "categoria_id": 3,
    "telefono": null,
    "instagram": null,
    "horario": null,
    "revisar": true,
    "amenity": "fast_food",
    "cuisine": "sandwich"
  },
  {
    "osm_id": "node/1362338230",
    "nombre": "Toscana",
    "direccion": null,
    "sector": "Centro",
    "lat": -39.8164643,
    "lon": -73.2351712,
    "categoria_id": 3,
    "telefono": null,
    "instagram": null,
    "horario": null,
    "revisar": true,
    "amenity": "fast_food",
    "cuisine": null
  },
  {
    "osm_id": "node/1363705007",
    "nombre": "La Calabaza",
    "direccion": "Avenida Italia 1770",
    "sector": "Centro",
    "lat": -39.8333273,
    "lon": -73.2385024,
    "categoria_id": 3,
    "telefono": null,
    "instagram": null,
    "horario": null,
    "revisar": true,
    "amenity": "fast_food",
    "cuisine": "pizza"
  },
  {
    "osm_id": "node/1371710347",
    "nombre": "El Turkito",
    "direccion": null,
    "sector": "Centro",
    "lat": -39.8197054,
    "lon": -73.2428299,
    "categoria_id": 3,
    "telefono": null,
    "instagram": null,
    "horario": null,
    "revisar": true,
    "amenity": "fast_food",
    "cuisine": null
  },
  {
    "osm_id": "node/1371719353",
    "nombre": "DCosta",
    "direccion": "Arauco 102",
    "sector": "Centro",
    "lat": -39.8147747,
    "lon": -73.2478228,
    "categoria_id": 3,
    "telefono": null,
    "instagram": null,
    "horario": null,
    "revisar": true,
    "amenity": "restaurant",
    "cuisine": "peruvian"
  },
  {
    "osm_id": "node/1373251168",
    "nombre": "Naturalia Kororü & Salad",
    "direccion": "Lautaro 115",
    "sector": "Centro",
    "lat": -39.8161151,
    "lon": -73.2478686,
    "categoria_id": 3,
    "telefono": null,
    "instagram": null,
    "horario": null,
    "revisar": true,
    "amenity": "restaurant",
    "cuisine": null
  },
  {
    "osm_id": "node/1373289347",
    "nombre": "Fogón del Leñador",
    "direccion": "Avenida Los Robles",
    "sector": "Centro",
    "lat": -39.8106214,
    "lon": -73.2551412,
    "categoria_id": 3,
    "telefono": null,
    "instagram": null,
    "horario": "Mo-Su 09:00-22:00",
    "revisar": false,
    "amenity": "restaurant",
    "cuisine": "regional;steak_house"
  },
  {
    "osm_id": "node/1374009407",
    "nombre": "Casino UACH",
    "direccion": null,
    "sector": "Centro",
    "lat": -39.806361,
    "lon": -73.2524622,
    "categoria_id": 3,
    "telefono": null,
    "instagram": null,
    "horario": null,
    "revisar": true,
    "amenity": "restaurant",
    "cuisine": null
  },
  {
    "osm_id": "node/1375095885",
    "nombre": "Universidad Austral",
    "direccion": null,
    "sector": "Centro",
    "lat": -39.8075368,
    "lon": -73.2469351,
    "categoria_id": 3,
    "telefono": null,
    "instagram": null,
    "horario": null,
    "revisar": true,
    "amenity": "fast_food",
    "cuisine": null
  },
  {
    "osm_id": "node/1375295924",
    "nombre": "Café Aroma",
    "direccion": "Lord Cochrane",
    "sector": "Centro",
    "lat": -39.8199123,
    "lon": -73.2430446,
    "categoria_id": 4,
    "telefono": null,
    "instagram": null,
    "horario": null,
    "revisar": false,
    "amenity": "cafe",
    "cuisine": null
  },
  {
    "osm_id": "node/1375315840",
    "nombre": "Universidad Austral",
    "direccion": null,
    "sector": "Centro",
    "lat": -39.8052227,
    "lon": -73.2476995,
    "categoria_id": 3,
    "telefono": null,
    "instagram": null,
    "horario": null,
    "revisar": true,
    "amenity": "fast_food",
    "cuisine": null
  },
  {
    "osm_id": "node/1376200205",
    "nombre": "Cocinerías del Mercado",
    "direccion": null,
    "sector": "Centro",
    "lat": -39.8128338,
    "lon": -73.2479068,
    "categoria_id": 3,
    "telefono": null,
    "instagram": null,
    "horario": null,
    "revisar": true,
    "amenity": "restaurant",
    "cuisine": null
  },
  {
    "osm_id": "node/1378233566",
    "nombre": "Restaurant",
    "direccion": null,
    "sector": "Centro",
    "lat": -39.832186,
    "lon": -73.2523372,
    "categoria_id": 3,
    "telefono": null,
    "instagram": null,
    "horario": null,
    "revisar": true,
    "amenity": "restaurant",
    "cuisine": null
  },
  {
    "osm_id": "node/1383868247",
    "nombre": "Los Vecinos",
    "direccion": "Irlanda",
    "sector": "Centro",
    "lat": -39.8364329,
    "lon": -73.2402486,
    "categoria_id": 3,
    "telefono": null,
    "instagram": null,
    "horario": null,
    "revisar": true,
    "amenity": "fast_food",
    "cuisine": "sandwich"
  },
  {
    "osm_id": "node/1385512124",
    "nombre": "Cafetería Philippi",
    "direccion": "Calle Museo",
    "sector": "Centro",
    "lat": -39.8133813,
    "lon": -73.2518131,
    "categoria_id": 4,
    "telefono": null,
    "instagram": null,
    "horario": null,
    "revisar": false,
    "amenity": "cafe",
    "cuisine": "coffee_shop"
  },
  {
    "osm_id": "node/1388022915",
    "nombre": "Onde la Meme",
    "direccion": "Yungay",
    "sector": "Centro",
    "lat": -39.8155153,
    "lon": -73.2480001,
    "categoria_id": 3,
    "telefono": null,
    "instagram": null,
    "horario": null,
    "revisar": true,
    "amenity": "restaurant",
    "cuisine": null
  },
  {
    "osm_id": "node/1401843249",
    "nombre": "Das Haus' 1959",
    "direccion": "O'Higgins",
    "sector": "Centro",
    "lat": -39.8127136,
    "lon": -73.2458382,
    "categoria_id": 3,
    "telefono": null,
    "instagram": null,
    "horario": null,
    "revisar": true,
    "amenity": "restaurant",
    "cuisine": "german"
  },
  {
    "osm_id": "node/1430659261",
    "nombre": "Cafetería Veterinaria",
    "direccion": null,
    "sector": "Centro",
    "lat": -39.804086,
    "lon": -73.2530847,
    "categoria_id": 3,
    "telefono": null,
    "instagram": null,
    "horario": null,
    "revisar": true,
    "amenity": "fast_food",
    "cuisine": null
  },
  {
    "osm_id": "node/1437138503",
    "nombre": "Sésamo",
    "direccion": "General Baquedano 1384",
    "sector": "Centro",
    "lat": -39.8222332,
    "lon": -73.2400131,
    "categoria_id": 3,
    "telefono": "+56992794001",
    "instagram": null,
    "horario": null,
    "revisar": true,
    "amenity": "restaurant",
    "cuisine": null
  },
  {
    "osm_id": "node/1441559252",
    "nombre": "Refrán",
    "direccion": "Caupolicán",
    "sector": "Centro",
    "lat": -39.813135,
    "lon": -73.2436441,
    "categoria_id": 4,
    "telefono": null,
    "instagram": null,
    "horario": null,
    "revisar": false,
    "amenity": "cafe",
    "cuisine": null
  },
  {
    "osm_id": "node/1613830857",
    "nombre": "Bar",
    "direccion": null,
    "sector": "Centro",
    "lat": -39.8384801,
    "lon": -73.2102209,
    "categoria_id": 2,
    "telefono": null,
    "instagram": null,
    "horario": null,
    "revisar": true,
    "amenity": "bar",
    "cuisine": null
  },
  {
    "osm_id": "node/1617305613",
    "nombre": "Di Baron",
    "direccion": null,
    "sector": "Centro",
    "lat": -39.811821,
    "lon": -73.2407941,
    "categoria_id": 3,
    "telefono": null,
    "instagram": null,
    "horario": null,
    "revisar": true,
    "amenity": "fast_food",
    "cuisine": null
  },
  {
    "osm_id": "node/1689112719",
    "nombre": "Madero Restobar",
    "direccion": null,
    "sector": "Centro",
    "lat": -39.8094455,
    "lon": -73.2447515,
    "categoria_id": 2,
    "telefono": null,
    "instagram": null,
    "horario": null,
    "revisar": true,
    "amenity": "bar",
    "cuisine": null
  },
  {
    "osm_id": "node/1761748528",
    "nombre": "Phoenix",
    "direccion": null,
    "sector": "Centro",
    "lat": -39.8089877,
    "lon": -73.2482913,
    "categoria_id": 2,
    "telefono": null,
    "instagram": null,
    "horario": "Mo-Th 12:30-01:00, Fr,Sa 12:30-02:00, Su 12:30-18:00",
    "revisar": true,
    "amenity": "bar",
    "cuisine": null
  },
  {
    "osm_id": "node/1835699453",
    "nombre": "Der Baer",
    "direccion": "Paseo Peatonal Camilo Henríquez",
    "sector": "Centro",
    "lat": -39.8147163,
    "lon": -73.2452807,
    "categoria_id": 4,
    "telefono": null,
    "instagram": null,
    "horario": null,
    "revisar": false,
    "amenity": "cafe",
    "cuisine": "coffee_shop;sandwich"
  },
  {
    "osm_id": "node/1909961660",
    "nombre": "Universidad Austral",
    "direccion": null,
    "sector": "Centro",
    "lat": -39.8044032,
    "lon": -73.253426,
    "categoria_id": 3,
    "telefono": null,
    "instagram": null,
    "horario": null,
    "revisar": true,
    "amenity": "fast_food",
    "cuisine": null
  },
  {
    "osm_id": "node/2132354177",
    "nombre": "Ona Restaurant",
    "direccion": null,
    "sector": "Niebla",
    "lat": -39.8742354,
    "lon": -73.3947572,
    "categoria_id": 1,
    "telefono": null,
    "instagram": null,
    "horario": null,
    "revisar": false,
    "amenity": "restaurant",
    "cuisine": "fish"
  },
  {
    "osm_id": "node/2460021002",
    "nombre": "Donceles",
    "direccion": "García Reyes 684-b",
    "sector": "Centro",
    "lat": -39.8172648,
    "lon": -73.2407577,
    "categoria_id": 4,
    "telefono": null,
    "instagram": null,
    "horario": null,
    "revisar": false,
    "amenity": "cafe",
    "cuisine": "coffee_shop"
  },
  {
    "osm_id": "node/2461166027",
    "nombre": "Maranatha",
    "direccion": "Camilo Henríquez",
    "sector": "Centro",
    "lat": -39.8181602,
    "lon": -73.2446469,
    "categoria_id": 3,
    "telefono": null,
    "instagram": null,
    "horario": null,
    "revisar": true,
    "amenity": "fast_food",
    "cuisine": null
  },
  {
    "osm_id": "node/2643934627",
    "nombre": "Caupolicán (Los Mellados)",
    "direccion": "Santiago Bueras",
    "sector": "Centro",
    "lat": -39.8269127,
    "lon": -73.2347724,
    "categoria_id": 3,
    "telefono": null,
    "instagram": null,
    "horario": "10:00-22:00",
    "revisar": false,
    "amenity": "restaurant",
    "cuisine": "regional"
  },
  {
    "osm_id": "node/2679719997",
    "nombre": "Cafe",
    "direccion": "O'Higgins",
    "sector": "Centro",
    "lat": -39.813088,
    "lon": -73.2458966,
    "categoria_id": 3,
    "telefono": null,
    "instagram": null,
    "horario": null,
    "revisar": true,
    "amenity": "fast_food",
    "cuisine": "american"
  },
  {
    "osm_id": "node/2824784111",
    "nombre": "Antojo Valdiviano",
    "direccion": "Santiago Bueras 1211",
    "sector": "Centro",
    "lat": -39.8287395,
    "lon": -73.2373098,
    "categoria_id": 3,
    "telefono": null,
    "instagram": null,
    "horario": null,
    "revisar": true,
    "amenity": "fast_food",
    "cuisine": null
  },
  {
    "osm_id": "node/2857519545",
    "nombre": "Garage",
    "direccion": null,
    "sector": "Centro",
    "lat": -39.8214951,
    "lon": -73.243327,
    "categoria_id": 3,
    "telefono": null,
    "instagram": null,
    "horario": null,
    "revisar": true,
    "amenity": "fast_food",
    "cuisine": "burger"
  },
  {
    "osm_id": "node/2988962640",
    "nombre": "Punto Clave",
    "direccion": null,
    "sector": "Centro",
    "lat": -39.8415284,
    "lon": -73.2287073,
    "categoria_id": 3,
    "telefono": null,
    "instagram": null,
    "horario": null,
    "revisar": true,
    "amenity": "fast_food",
    "cuisine": null
  },
  {
    "osm_id": "node/3672250811",
    "nombre": "Club Sala Murano",
    "direccion": "Camilo Henríquez 648",
    "sector": "Centro",
    "lat": -39.8158518,
    "lon": -73.2454896,
    "categoria_id": 2,
    "telefono": null,
    "instagram": null,
    "horario": null,
    "revisar": true,
    "amenity": "bar",
    "cuisine": null
  },
  {
    "osm_id": "node/3978701773",
    "nombre": "Cafeteria Facultad de Ciencias",
    "direccion": "Avenida Rector Eduardo Morales Miranda",
    "sector": "Centro",
    "lat": -39.8060463,
    "lon": -73.2500999,
    "categoria_id": 4,
    "telefono": null,
    "instagram": null,
    "horario": "Mo-Fr 10:00-19:30",
    "revisar": false,
    "amenity": "cafe",
    "cuisine": null
  },
  {
    "osm_id": "node/3978728810",
    "nombre": "El Mordisco",
    "direccion": "Aníbal Pinto 909",
    "sector": "Centro",
    "lat": -39.8194204,
    "lon": -73.2428385,
    "categoria_id": 4,
    "telefono": "063 2668350",
    "instagram": null,
    "horario": null,
    "revisar": false,
    "amenity": "cafe",
    "cuisine": "regional"
  },
  {
    "osm_id": "node/4124532850",
    "nombre": "Kiosko Federación",
    "direccion": null,
    "sector": "Centro",
    "lat": -39.806698,
    "lon": -73.249524,
    "categoria_id": 3,
    "telefono": null,
    "instagram": null,
    "horario": null,
    "revisar": true,
    "amenity": "fast_food",
    "cuisine": null
  },
  {
    "osm_id": "node/4286211010",
    "nombre": "Río Bar",
    "direccion": "Avenida Alemania 290",
    "sector": "Centro",
    "lat": -39.812541,
    "lon": -73.2452357,
    "categoria_id": 2,
    "telefono": null,
    "instagram": null,
    "horario": "18:00-04:00",
    "revisar": true,
    "amenity": "bar",
    "cuisine": null
  },
  {
    "osm_id": "node/4286218704",
    "nombre": "Punto de Quiebre",
    "direccion": null,
    "sector": "Centro",
    "lat": -39.8118555,
    "lon": -73.2453353,
    "categoria_id": 2,
    "telefono": null,
    "instagram": null,
    "horario": null,
    "revisar": true,
    "amenity": "bar",
    "cuisine": null
  },
  {
    "osm_id": "node/4313477646",
    "nombre": "Río Roll",
    "direccion": "General Baquedano 617",
    "sector": "Centro",
    "lat": -39.822362,
    "lon": -73.2399878,
    "categoria_id": 3,
    "telefono": "+56 63 225 3212",
    "instagram": null,
    "horario": null,
    "revisar": true,
    "amenity": "restaurant",
    "cuisine": "japanese"
  },
  {
    "osm_id": "node/4328568261",
    "nombre": "Nikkei",
    "direccion": "Toribio Medina",
    "sector": "Centro",
    "lat": -39.8250493,
    "lon": -73.2393685,
    "categoria_id": 3,
    "telefono": "+56632200230",
    "instagram": null,
    "horario": null,
    "revisar": true,
    "amenity": "restaurant",
    "cuisine": "sushi"
  },
  {
    "osm_id": "node/4330168575",
    "nombre": "Dulce Ríos",
    "direccion": "Caupolicán",
    "sector": "Centro",
    "lat": -39.8131833,
    "lon": -73.2439155,
    "categoria_id": 3,
    "telefono": null,
    "instagram": null,
    "horario": null,
    "revisar": true,
    "amenity": "fast_food",
    "cuisine": "sandwich;friture"
  },
  {
    "osm_id": "node/4330169882",
    "nombre": "Café Bar Escorpión Rojo",
    "direccion": "Avenida Alemania",
    "sector": "Centro",
    "lat": -39.8124687,
    "lon": -73.2444015,
    "categoria_id": 2,
    "telefono": null,
    "instagram": null,
    "horario": null,
    "revisar": true,
    "amenity": "bar",
    "cuisine": "regional"
  },
  {
    "osm_id": "node/4330189151",
    "nombre": "La Moneda",
    "direccion": "Camilo Henríquez 436",
    "sector": "Centro",
    "lat": -39.8133962,
    "lon": -73.2451662,
    "categoria_id": 2,
    "telefono": null,
    "instagram": null,
    "horario": null,
    "revisar": true,
    "amenity": "bar",
    "cuisine": null
  },
  {
    "osm_id": "node/4337932633",
    "nombre": "Con Tomate y Mayo",
    "direccion": "Beauchef 637",
    "sector": "Centro",
    "lat": -39.8172194,
    "lon": -73.2429922,
    "categoria_id": 3,
    "telefono": "+56964925950",
    "instagram": null,
    "horario": "Mo-Sa 12:30-00:00",
    "revisar": true,
    "amenity": "restaurant",
    "cuisine": "sandwich;pizza;tablas;cervezas;almuerzos;tragos_nacionales"
  },
  {
    "osm_id": "node/4337940414",
    "nombre": "Al Paso",
    "direccion": "Arauco",
    "sector": "Centro",
    "lat": -39.8156483,
    "lon": -73.2438022,
    "categoria_id": 3,
    "telefono": null,
    "instagram": null,
    "horario": null,
    "revisar": true,
    "amenity": "fast_food",
    "cuisine": "sandwich"
  },
  {
    "osm_id": "node/4337946641",
    "nombre": "La Posada",
    "direccion": "Esmeralda",
    "sector": "Centro",
    "lat": -39.8156825,
    "lon": -73.2443509,
    "categoria_id": 3,
    "telefono": null,
    "instagram": null,
    "horario": null,
    "revisar": true,
    "amenity": "fast_food",
    "cuisine": "sandwich"
  },
  {
    "osm_id": "node/4341865337",
    "nombre": "El Rincón de ?",
    "direccion": "Ismael Valdes 424",
    "sector": "Centro",
    "lat": -39.813757,
    "lon": -73.2422994,
    "categoria_id": 3,
    "telefono": null,
    "instagram": null,
    "horario": null,
    "revisar": true,
    "amenity": "fast_food",
    "cuisine": "regional"
  },
  {
    "osm_id": "node/4341886902",
    "nombre": "El Shaddai",
    "direccion": "Chacabuco",
    "sector": "Centro",
    "lat": -39.8134861,
    "lon": -73.2426695,
    "categoria_id": 3,
    "telefono": null,
    "instagram": null,
    "horario": null,
    "revisar": true,
    "amenity": "fast_food",
    "cuisine": null
  },
  {
    "osm_id": "node/4341888923",
    "nombre": "Los Leños",
    "direccion": "Chacabuco",
    "sector": "Centro",
    "lat": -39.8131094,
    "lon": -73.2430086,
    "categoria_id": 3,
    "telefono": null,
    "instagram": null,
    "horario": null,
    "revisar": true,
    "amenity": "restaurant",
    "cuisine": null
  },
  {
    "osm_id": "node/4353359398",
    "nombre": "SantaArepa",
    "direccion": "Irlanda",
    "sector": "Centro",
    "lat": -39.8365206,
    "lon": -73.2401709,
    "categoria_id": 3,
    "telefono": null,
    "instagram": null,
    "horario": null,
    "revisar": true,
    "amenity": "fast_food",
    "cuisine": "sushi"
  },
  {
    "osm_id": "node/4353384722",
    "nombre": "El Molino",
    "direccion": "Chacabuco",
    "sector": "Centro",
    "lat": -39.8129103,
    "lon": -73.2458777,
    "categoria_id": 3,
    "telefono": null,
    "instagram": null,
    "horario": null,
    "revisar": true,
    "amenity": "restaurant",
    "cuisine": null
  },
  {
    "osm_id": "node/4367830691",
    "nombre": "Musstang",
    "direccion": "Caupolicán 588",
    "sector": "Centro",
    "lat": -39.8152226,
    "lon": -73.2441475,
    "categoria_id": 2,
    "telefono": null,
    "instagram": null,
    "horario": null,
    "revisar": true,
    "amenity": "bar",
    "cuisine": null
  },
  {
    "osm_id": "node/4381096389",
    "nombre": "quinta las brizas",
    "direccion": null,
    "sector": "Centro",
    "lat": -39.8430992,
    "lon": -73.2027795,
    "categoria_id": 3,
    "telefono": null,
    "instagram": null,
    "horario": null,
    "revisar": true,
    "amenity": "restaurant",
    "cuisine": null
  },
  {
    "osm_id": "node/4432864413",
    "nombre": "Terra",
    "direccion": "Arauco 240",
    "sector": "Centro",
    "lat": -39.8151195,
    "lon": -73.2460846,
    "categoria_id": 4,
    "telefono": null,
    "instagram": null,
    "horario": null,
    "revisar": false,
    "amenity": "cafe",
    "cuisine": null
  },
  {
    "osm_id": "node/4444437801",
    "nombre": "Guacamole",
    "direccion": "García Reyes 684",
    "sector": "Centro",
    "lat": -39.8173775,
    "lon": -73.2407951,
    "categoria_id": 3,
    "telefono": null,
    "instagram": null,
    "horario": null,
    "revisar": true,
    "amenity": "restaurant",
    "cuisine": null
  },
  {
    "osm_id": "node/4444437891",
    "nombre": "Restaurant Costanera",
    "direccion": "Avenida Arturo Prat",
    "sector": "Centro",
    "lat": -39.8132882,
    "lon": -73.2481548,
    "categoria_id": 3,
    "telefono": null,
    "instagram": null,
    "horario": null,
    "revisar": true,
    "amenity": "restaurant",
    "cuisine": null
  },
  {
    "osm_id": "node/4553124389",
    "nombre": "Fuente Valdiviana",
    "direccion": "Esmeralda 634",
    "sector": "Centro",
    "lat": -39.8158286,
    "lon": -73.2443634,
    "categoria_id": 3,
    "telefono": null,
    "instagram": null,
    "horario": null,
    "revisar": true,
    "amenity": "restaurant",
    "cuisine": null
  },
  {
    "osm_id": "node/4558492696",
    "nombre": "La Posada",
    "direccion": null,
    "sector": "Las Ánimas",
    "lat": -39.7947261,
    "lon": -73.2133262,
    "categoria_id": 3,
    "telefono": null,
    "instagram": null,
    "horario": null,
    "revisar": true,
    "amenity": "restaurant",
    "cuisine": null
  },
  {
    "osm_id": "node/4691206604",
    "nombre": "Pash café",
    "direccion": "Caupolicán 360",
    "sector": "Centro",
    "lat": -39.8128814,
    "lon": -73.2433334,
    "categoria_id": 4,
    "telefono": null,
    "instagram": null,
    "horario": "Mo-Sa 10:00-20:00; Su 09:00-18:00",
    "revisar": false,
    "amenity": "cafe",
    "cuisine": null
  },
  {
    "osm_id": "node/4763435922",
    "nombre": "El Rincón de la Abuela",
    "direccion": "Avenida Italia",
    "sector": "Centro",
    "lat": -39.8328008,
    "lon": -73.2390359,
    "categoria_id": 3,
    "telefono": null,
    "instagram": null,
    "horario": null,
    "revisar": true,
    "amenity": "fast_food",
    "cuisine": null
  },
  {
    "osm_id": "node/4829667908",
    "nombre": "Donde Yayo",
    "direccion": null,
    "sector": "Centro",
    "lat": -39.8216092,
    "lon": -73.2447481,
    "categoria_id": 3,
    "telefono": null,
    "instagram": null,
    "horario": null,
    "revisar": true,
    "amenity": "fast_food",
    "cuisine": null
  },
  {
    "osm_id": "node/5072580222",
    "nombre": "Nonna Clara Pizzería",
    "direccion": "Bombero Classing 228 C",
    "sector": "Centro",
    "lat": -39.8125269,
    "lon": -73.2227819,
    "categoria_id": 3,
    "telefono": "930676488",
    "instagram": null,
    "horario": "Mo-Su 14:00-03:00",
    "revisar": true,
    "amenity": "fast_food",
    "cuisine": "pizza"
  },
  {
    "osm_id": "node/5072580223",
    "nombre": "Nonna Clara Repostería",
    "direccion": "Bombero Classing 228 C",
    "sector": "Centro",
    "lat": -39.8125069,
    "lon": -73.222808,
    "categoria_id": 3,
    "telefono": "930676488",
    "instagram": null,
    "horario": "Mo-Su 08:45-23:00",
    "revisar": true,
    "amenity": "fast_food",
    "cuisine": "pancake"
  },
  {
    "osm_id": "node/5176545127",
    "nombre": "Café Cotidiano",
    "direccion": "Arauco",
    "sector": "Centro",
    "lat": -39.815147,
    "lon": -73.2459224,
    "categoria_id": 4,
    "telefono": null,
    "instagram": null,
    "horario": null,
    "revisar": false,
    "amenity": "cafe",
    "cuisine": null
  },
  {
    "osm_id": "node/5287790314",
    "nombre": "La Tiendita Té y Café",
    "direccion": "Avenida Los Robles 620",
    "sector": "Centro",
    "lat": -39.8091451,
    "lon": -73.2600715,
    "categoria_id": 4,
    "telefono": null,
    "instagram": null,
    "horario": null,
    "revisar": false,
    "amenity": "cafe",
    "cuisine": null
  },
  {
    "osm_id": "node/5287949732",
    "nombre": "Carrito",
    "direccion": "Santiago Bueras",
    "sector": "Centro",
    "lat": -39.8300023,
    "lon": -73.2401031,
    "categoria_id": 3,
    "telefono": null,
    "instagram": null,
    "horario": null,
    "revisar": true,
    "amenity": "fast_food",
    "cuisine": null
  },
  {
    "osm_id": "node/5287949733",
    "nombre": "Señora Juanita",
    "direccion": "Santiago Bueras",
    "sector": "Centro",
    "lat": -39.829751,
    "lon": -73.2396489,
    "categoria_id": 3,
    "telefono": null,
    "instagram": null,
    "horario": null,
    "revisar": true,
    "amenity": "fast_food",
    "cuisine": null
  },
  {
    "osm_id": "node/5287949734",
    "nombre": "Producciones Nicook",
    "direccion": "Sargento Bueras 1040",
    "sector": "Centro",
    "lat": -39.8297429,
    "lon": -73.2394961,
    "categoria_id": 3,
    "telefono": null,
    "instagram": null,
    "horario": null,
    "revisar": true,
    "amenity": "restaurant",
    "cuisine": null
  },
  {
    "osm_id": "node/5287949738",
    "nombre": "Pewen",
    "direccion": "Avenida Simpson 1000",
    "sector": "Centro",
    "lat": -39.8320857,
    "lon": -73.2386409,
    "categoria_id": 3,
    "telefono": null,
    "instagram": null,
    "horario": null,
    "revisar": true,
    "amenity": "fast_food",
    "cuisine": null
  },
  {
    "osm_id": "node/5288977473",
    "nombre": "Comida Rapida El Bajon",
    "direccion": "Santa Laura 706",
    "sector": "Centro",
    "lat": -39.849759,
    "lon": -73.2217731,
    "categoria_id": 3,
    "telefono": null,
    "instagram": null,
    "horario": null,
    "revisar": true,
    "amenity": "fast_food",
    "cuisine": "burger;sandwich"
  },
  {
    "osm_id": "node/5288977944",
    "nombre": "Donde el Tata",
    "direccion": "Avenida Italia 1740",
    "sector": "Centro",
    "lat": -39.8329425,
    "lon": -73.2388886,
    "categoria_id": 3,
    "telefono": null,
    "instagram": null,
    "horario": null,
    "revisar": true,
    "amenity": "fast_food",
    "cuisine": "steak_house"
  },
  {
    "osm_id": "node/5289004290",
    "nombre": "Pollos Schüler",
    "direccion": "Avenida Pedro Montt 4355",
    "sector": "Centro",
    "lat": -39.8504228,
    "lon": -73.2320274,
    "categoria_id": 3,
    "telefono": "632435762",
    "instagram": null,
    "horario": null,
    "revisar": true,
    "amenity": "fast_food",
    "cuisine": "burger;chicken;fish_and_chips;regional"
  },
  {
    "osm_id": "node/5302676073",
    "nombre": "Subway",
    "direccion": "Anfión Muñoz 360",
    "sector": "Centro",
    "lat": -39.8156144,
    "lon": -73.2357629,
    "categoria_id": 3,
    "telefono": null,
    "instagram": null,
    "horario": null,
    "revisar": true,
    "amenity": "fast_food",
    "cuisine": "sandwich"
  },
  {
    "osm_id": "node/5302681333",
    "nombre": "El Rinconcito",
    "direccion": "Anfión Muñoz 360",
    "sector": "Centro",
    "lat": -39.8146275,
    "lon": -73.2353031,
    "categoria_id": 4,
    "telefono": null,
    "instagram": null,
    "horario": null,
    "revisar": false,
    "amenity": "cafe",
    "cuisine": null
  },
  {
    "osm_id": "node/5302681344",
    "nombre": "Restaurany Los Ríos",
    "direccion": "Anfión Muñoz 360",
    "sector": "Centro",
    "lat": -39.8157238,
    "lon": -73.235784,
    "categoria_id": 3,
    "telefono": null,
    "instagram": null,
    "horario": null,
    "revisar": true,
    "amenity": "restaurant",
    "cuisine": null
  },
  {
    "osm_id": "node/5302681352",
    "nombre": "Río Roll",
    "direccion": "Anfión Muñoz 360",
    "sector": "Centro",
    "lat": -39.8156636,
    "lon": -73.2358603,
    "categoria_id": 3,
    "telefono": null,
    "instagram": null,
    "horario": null,
    "revisar": true,
    "amenity": "fast_food",
    "cuisine": "sushi"
  },
  {
    "osm_id": "node/5302681353",
    "nombre": "Pedro, Juan & Diego",
    "direccion": "Anfión Muñoz 360",
    "sector": "Centro",
    "lat": -39.8156107,
    "lon": -73.2358628,
    "categoria_id": 3,
    "telefono": null,
    "instagram": null,
    "horario": null,
    "revisar": true,
    "amenity": "fast_food",
    "cuisine": "burger;sandwich"
  },
  {
    "osm_id": "node/5302681512",
    "nombre": "Cafe Karu",
    "direccion": "Anfión Muñoz 360",
    "sector": "Centro",
    "lat": -39.8153539,
    "lon": -73.2357628,
    "categoria_id": 4,
    "telefono": null,
    "instagram": null,
    "horario": null,
    "revisar": false,
    "amenity": "cafe",
    "cuisine": null
  },
  {
    "osm_id": "node/5302681653",
    "nombre": "Sabor de India",
    "direccion": "Anfión Muñoz 360",
    "sector": "Centro",
    "lat": -39.8157367,
    "lon": -73.2358242,
    "categoria_id": 3,
    "telefono": null,
    "instagram": null,
    "horario": null,
    "revisar": true,
    "amenity": "fast_food",
    "cuisine": "indian"
  },
  {
    "osm_id": "node/5302681654",
    "nombre": "Tarragona",
    "direccion": "Anfión Muñoz 360",
    "sector": "Centro",
    "lat": -39.8155974,
    "lon": -73.2358357,
    "categoria_id": 3,
    "telefono": null,
    "instagram": null,
    "horario": null,
    "revisar": true,
    "amenity": "fast_food",
    "cuisine": "burger;chicken"
  },
  {
    "osm_id": "node/5302681724",
    "nombre": "Cafeteria y Cocineria Los Rios",
    "direccion": "Anfión Muñoz 360",
    "sector": "Centro",
    "lat": -39.8156284,
    "lon": -73.2358902,
    "categoria_id": 3,
    "telefono": null,
    "instagram": null,
    "horario": null,
    "revisar": true,
    "amenity": "fast_food",
    "cuisine": "steak_house"
  },
  {
    "osm_id": "node/5303396340",
    "nombre": "Juan Maestro",
    "direccion": "Arauco 561",
    "sector": "Centro",
    "lat": -39.8164999,
    "lon": -73.2428877,
    "categoria_id": 3,
    "telefono": null,
    "instagram": null,
    "horario": null,
    "revisar": true,
    "amenity": "fast_food",
    "cuisine": "burger"
  },
  {
    "osm_id": "node/5303396341",
    "nombre": "KFC",
    "direccion": "Arauco 561",
    "sector": "Centro",
    "lat": -39.8163199,
    "lon": -73.242859,
    "categoria_id": 3,
    "telefono": null,
    "instagram": null,
    "horario": null,
    "revisar": true,
    "amenity": "fast_food",
    "cuisine": "chicken"
  },
  {
    "osm_id": "node/5303396342",
    "nombre": "Tommy Beans",
    "direccion": "Arauco 561",
    "sector": "Centro",
    "lat": -39.8162285,
    "lon": -73.2428501,
    "categoria_id": 3,
    "telefono": null,
    "instagram": null,
    "horario": null,
    "revisar": true,
    "amenity": "fast_food",
    "cuisine": "mexican"
  },
  {
    "osm_id": "node/5303396343",
    "nombre": "Pedro, Juan y Diego",
    "direccion": "Arauco 561",
    "sector": "Centro",
    "lat": -39.8161264,
    "lon": -73.2428258,
    "categoria_id": 3,
    "telefono": null,
    "instagram": null,
    "horario": null,
    "revisar": true,
    "amenity": "fast_food",
    "cuisine": "burger"
  },
  {
    "osm_id": "node/5303396344",
    "nombre": "Platon",
    "direccion": "Arauco 561",
    "sector": "Centro",
    "lat": -39.8161086,
    "lon": -73.2426933,
    "categoria_id": 3,
    "telefono": null,
    "instagram": null,
    "horario": null,
    "revisar": false,
    "amenity": "restaurant",
    "cuisine": "regional"
  },
  {
    "osm_id": "node/5303404178",
    "nombre": "Buffet Express",
    "direccion": null,
    "sector": "Centro",
    "lat": -39.8167872,
    "lon": -73.2429069,
    "categoria_id": 3,
    "telefono": null,
    "instagram": null,
    "horario": null,
    "revisar": true,
    "amenity": "restaurant",
    "cuisine": null
  },
  {
    "osm_id": "node/5303404180",
    "nombre": "Dunkin'",
    "direccion": "Arauco 561",
    "sector": "Centro",
    "lat": -39.8167153,
    "lon": -73.2421396,
    "categoria_id": 3,
    "telefono": null,
    "instagram": null,
    "horario": null,
    "revisar": true,
    "amenity": "fast_food",
    "cuisine": "donut;coffee_shop"
  },
  {
    "osm_id": "node/5313118730",
    "nombre": "Casa Celeste",
    "direccion": "San Carlos",
    "sector": "Centro",
    "lat": -39.815741,
    "lon": -73.2468702,
    "categoria_id": 4,
    "telefono": null,
    "instagram": null,
    "horario": null,
    "revisar": false,
    "amenity": "cafe",
    "cuisine": null
  },
  {
    "osm_id": "node/5318827521",
    "nombre": "Dunkin'",
    "direccion": null,
    "sector": "Centro",
    "lat": -39.8138151,
    "lon": -73.2451728,
    "categoria_id": 3,
    "telefono": null,
    "instagram": null,
    "horario": null,
    "revisar": true,
    "amenity": "fast_food",
    "cuisine": "donut;coffee_shop"
  },
  {
    "osm_id": "node/5318859022",
    "nombre": "El Rey del Marisco",
    "direccion": null,
    "sector": "Centro",
    "lat": -39.8128863,
    "lon": -73.2479927,
    "categoria_id": 1,
    "telefono": null,
    "instagram": null,
    "horario": null,
    "revisar": false,
    "amenity": "restaurant",
    "cuisine": "fish;seafood"
  },
  {
    "osm_id": "node/5343702329",
    "nombre": "El Chilenito",
    "direccion": null,
    "sector": "Centro",
    "lat": -39.8400793,
    "lon": -73.2174809,
    "categoria_id": 3,
    "telefono": null,
    "instagram": null,
    "horario": null,
    "revisar": true,
    "amenity": "fast_food",
    "cuisine": null
  },
  {
    "osm_id": "node/5427833121",
    "nombre": "Restaurante La Abuela",
    "direccion": null,
    "sector": "Corral",
    "lat": -39.8881165,
    "lon": -73.429921,
    "categoria_id": 3,
    "telefono": null,
    "instagram": null,
    "horario": null,
    "revisar": true,
    "amenity": "restaurant",
    "cuisine": null
  },
  {
    "osm_id": "node/5427833221",
    "nombre": "Feria Gastronómica Corral",
    "direccion": null,
    "sector": "Corral",
    "lat": -39.8882177,
    "lon": -73.4298967,
    "categoria_id": 3,
    "telefono": null,
    "instagram": null,
    "horario": null,
    "revisar": true,
    "amenity": "restaurant",
    "cuisine": null
  },
  {
    "osm_id": "node/5531801556",
    "nombre": "Café Raíces",
    "direccion": "Serrano 958",
    "sector": "Centro",
    "lat": -39.8197587,
    "lon": -73.2459932,
    "categoria_id": 4,
    "telefono": null,
    "instagram": null,
    "horario": null,
    "revisar": false,
    "amenity": "cafe",
    "cuisine": null
  },
  {
    "osm_id": "node/5592407584",
    "nombre": "Café Barlovento",
    "direccion": "Aníbal Pinto",
    "sector": "Centro",
    "lat": -39.8254475,
    "lon": -73.2398702,
    "categoria_id": 4,
    "telefono": null,
    "instagram": null,
    "horario": null,
    "revisar": false,
    "amenity": "cafe",
    "cuisine": null
  },
  {
    "osm_id": "node/5996824377",
    "nombre": "Coffee time",
    "direccion": null,
    "sector": "Centro",
    "lat": -39.8166585,
    "lon": -73.246809,
    "categoria_id": 4,
    "telefono": null,
    "instagram": null,
    "horario": null,
    "revisar": false,
    "amenity": "cafe",
    "cuisine": null
  },
  {
    "osm_id": "node/5996824390",
    "nombre": "Roasty",
    "direccion": null,
    "sector": "Centro",
    "lat": -39.8110792,
    "lon": -73.2521436,
    "categoria_id": 4,
    "telefono": null,
    "instagram": null,
    "horario": null,
    "revisar": false,
    "amenity": "cafe",
    "cuisine": null
  },
  {
    "osm_id": "node/6190595588",
    "nombre": "Don Rucio",
    "direccion": "Caupolicán 270",
    "sector": "Centro",
    "lat": -39.8119383,
    "lon": -73.2433368,
    "categoria_id": 2,
    "telefono": "+56990752679",
    "instagram": null,
    "horario": "Su-Th 18:00-00:00, Fr-Sa 18:00-02:00",
    "revisar": true,
    "amenity": "bar",
    "cuisine": null
  },
  {
    "osm_id": "node/6253636096",
    "nombre": "Enki",
    "direccion": null,
    "sector": "Centro",
    "lat": -39.820086,
    "lon": -73.242796,
    "categoria_id": 3,
    "telefono": null,
    "instagram": null,
    "horario": null,
    "revisar": true,
    "amenity": "restaurant",
    "cuisine": null
  },
  {
    "osm_id": "node/6281849486",
    "nombre": "Encuentro Valdiviano",
    "direccion": "Arica 2748",
    "sector": "Centro",
    "lat": -39.8394632,
    "lon": -73.2575219,
    "categoria_id": 3,
    "telefono": "+56632431096",
    "instagram": null,
    "horario": null,
    "revisar": true,
    "amenity": "fast_food",
    "cuisine": "sandwich;regional"
  },
  {
    "osm_id": "node/7018352985",
    "nombre": "New Orleans",
    "direccion": null,
    "sector": "Centro",
    "lat": -39.816329,
    "lon": -73.2437206,
    "categoria_id": 3,
    "telefono": null,
    "instagram": null,
    "horario": null,
    "revisar": true,
    "amenity": "restaurant",
    "cuisine": null
  },
  {
    "osm_id": "node/7137280524",
    "nombre": "La Notaría",
    "direccion": "Independencia",
    "sector": "Centro",
    "lat": -39.8156793,
    "lon": -73.2472965,
    "categoria_id": 4,
    "telefono": null,
    "instagram": null,
    "horario": null,
    "revisar": false,
    "amenity": "cafe",
    "cuisine": null
  },
  {
    "osm_id": "node/7139782854",
    "nombre": "Café & Pastelería Planeta Brunch",
    "direccion": "Lautaro 175",
    "sector": "Centro",
    "lat": -39.8162373,
    "lon": -73.2472107,
    "categoria_id": 4,
    "telefono": "+56 9 6523 0039",
    "instagram": "https://www.instagram.com/planetabrunch",
    "horario": "Mo-Fr 08:30-20:30; Sa 09:30-21:30",
    "revisar": false,
    "amenity": "cafe",
    "cuisine": "dessert;breakfast;coffee_shop"
  },
  {
    "osm_id": "node/7139795105",
    "nombre": "Café Simple",
    "direccion": "Camilo Henríquez 266",
    "sector": "Centro",
    "lat": -39.8110756,
    "lon": -73.2445678,
    "categoria_id": 4,
    "telefono": null,
    "instagram": null,
    "horario": null,
    "revisar": false,
    "amenity": "cafe",
    "cuisine": null
  },
  {
    "osm_id": "node/7235858759",
    "nombre": "Liquen Café",
    "direccion": "Avenida Francia 1800",
    "sector": "Centro",
    "lat": -39.8345881,
    "lon": -73.2396614,
    "categoria_id": 4,
    "telefono": null,
    "instagram": null,
    "horario": null,
    "revisar": false,
    "amenity": "cafe",
    "cuisine": null
  },
  {
    "osm_id": "node/7884252886",
    "nombre": "Cervecería Mawida",
    "direccion": "Isla Guacamayo 2244",
    "sector": "Centro",
    "lat": -39.8324789,
    "lon": -73.2332279,
    "categoria_id": 2,
    "telefono": "+56965047729",
    "instagram": null,
    "horario": "Mo-Sa 17:00-22:00",
    "revisar": true,
    "amenity": "bar",
    "cuisine": "pizza"
  },
  {
    "osm_id": "node/9165505114",
    "nombre": "Quila Café",
    "direccion": "Beauchef 658",
    "sector": "Centro",
    "lat": -39.8173054,
    "lon": -73.2425197,
    "categoria_id": 4,
    "telefono": "+56994766736",
    "instagram": null,
    "horario": "Mo-Sa 10:00-20:00",
    "revisar": false,
    "amenity": "cafe",
    "cuisine": "coffee_shop;sandwich;ice_cream;pizza;regional;desayunos;quincho;centro_de_eventos;jugos"
  },
  {
    "osm_id": "node/9359346322",
    "nombre": "El Tropezón",
    "direccion": null,
    "sector": "Niebla",
    "lat": -39.8753607,
    "lon": -73.3886772,
    "categoria_id": 3,
    "telefono": null,
    "instagram": null,
    "horario": null,
    "revisar": true,
    "amenity": "restaurant",
    "cuisine": null
  },
  {
    "osm_id": "node/9760744020",
    "nombre": "Café Arcoiris",
    "direccion": null,
    "sector": "Centro",
    "lat": -39.8126537,
    "lon": -73.2404878,
    "categoria_id": 4,
    "telefono": null,
    "instagram": null,
    "horario": null,
    "revisar": false,
    "amenity": "cafe",
    "cuisine": null
  },
  {
    "osm_id": "node/9768684917",
    "nombre": "Pizzería Corazón Contento",
    "direccion": null,
    "sector": "Centro",
    "lat": -39.8170854,
    "lon": -73.2365665,
    "categoria_id": 3,
    "telefono": null,
    "instagram": null,
    "horario": null,
    "revisar": true,
    "amenity": "restaurant",
    "cuisine": null
  },
  {
    "osm_id": "node/9768685017",
    "nombre": "Ubuntu - Lugar de Encuentros",
    "direccion": null,
    "sector": "Centro",
    "lat": -39.8106763,
    "lon": -73.2453046,
    "categoria_id": 3,
    "telefono": null,
    "instagram": null,
    "horario": null,
    "revisar": true,
    "amenity": "restaurant",
    "cuisine": null
  },
  {
    "osm_id": "node/9768685117",
    "nombre": "Enki Vegan",
    "direccion": "O'Higgins 374",
    "sector": "Centro",
    "lat": -39.8125573,
    "lon": -73.2458357,
    "categoria_id": 3,
    "telefono": "+56936975889",
    "instagram": null,
    "horario": "Mo-We 13:00-12:30, Th-Sa 13:00-22:30",
    "revisar": true,
    "amenity": "restaurant",
    "cuisine": "pizza"
  },
  {
    "osm_id": "node/10795405881",
    "nombre": "450 Bar Pizzeria",
    "direccion": "Los Alerces 20",
    "sector": "Centro",
    "lat": -39.8099958,
    "lon": -73.2546258,
    "categoria_id": 3,
    "telefono": null,
    "instagram": null,
    "horario": null,
    "revisar": true,
    "amenity": "restaurant",
    "cuisine": "pizza"
  },
  {
    "osm_id": "node/11115123714",
    "nombre": "La choza del Teba",
    "direccion": "Avenida Pedro Montt",
    "sector": "Centro",
    "lat": -39.8440072,
    "lon": -73.2325252,
    "categoria_id": 3,
    "telefono": null,
    "instagram": null,
    "horario": null,
    "revisar": true,
    "amenity": "fast_food",
    "cuisine": null
  },
  {
    "osm_id": "node/12017278988",
    "nombre": "Starbucks",
    "direccion": "Avenida Ramón Picarte 442",
    "sector": "Centro",
    "lat": -39.8142772,
    "lon": -73.2435724,
    "categoria_id": 4,
    "telefono": null,
    "instagram": null,
    "horario": null,
    "revisar": false,
    "amenity": "cafe",
    "cuisine": "coffee_shop"
  },
  {
    "osm_id": "node/12069090157",
    "nombre": "Klasser Burger",
    "direccion": "Lord Cochrane 176",
    "sector": "Centro",
    "lat": -39.8188476,
    "lon": -73.2482974,
    "categoria_id": 3,
    "telefono": "+56 9 4348 1935",
    "instagram": "klasserburgervaldivia",
    "horario": "Mo-Th 09:00-23:00; Fr 09:00-23:30; Sa-Su 11:30-23:00",
    "revisar": true,
    "amenity": "fast_food",
    "cuisine": "burger;fries"
  },
  {
    "osm_id": "node/12088079453",
    "nombre": "Donde La Mayo",
    "direccion": "Camilo Henríquez",
    "sector": "Centro",
    "lat": -39.8131855,
    "lon": -73.2451874,
    "categoria_id": 3,
    "telefono": null,
    "instagram": null,
    "horario": null,
    "revisar": true,
    "amenity": "fast_food",
    "cuisine": "sandwich;friture"
  },
  {
    "osm_id": "node/12365224282",
    "nombre": "Toto",
    "direccion": "Camilo Henríquez",
    "sector": "Centro",
    "lat": -39.8127164,
    "lon": -73.2450697,
    "categoria_id": 3,
    "telefono": null,
    "instagram": null,
    "horario": null,
    "revisar": true,
    "amenity": "fast_food",
    "cuisine": "sandwich"
  },
  {
    "osm_id": "node/12396949534",
    "nombre": "Churros",
    "direccion": "Avenida Ramón Picarte",
    "sector": "Centro",
    "lat": -39.8141544,
    "lon": -73.2453885,
    "categoria_id": 3,
    "telefono": null,
    "instagram": null,
    "horario": null,
    "revisar": true,
    "amenity": "fast_food",
    "cuisine": null
  },
  {
    "osm_id": "node/12466051056",
    "nombre": "Café del Elfo",
    "direccion": "Vicente Pérez Rosales",
    "sector": "Centro",
    "lat": -39.8157187,
    "lon": -73.2467598,
    "categoria_id": 4,
    "telefono": null,
    "instagram": null,
    "horario": "Mo-Sa 08:00-22:00",
    "revisar": false,
    "amenity": "cafe",
    "cuisine": null
  },
  {
    "osm_id": "node/12507634180",
    "nombre": "Club Ibiza",
    "direccion": "Camilo Henríquez",
    "sector": "Centro",
    "lat": -39.8128163,
    "lon": -73.2450671,
    "categoria_id": 2,
    "telefono": null,
    "instagram": null,
    "horario": null,
    "revisar": true,
    "amenity": "bar",
    "cuisine": null
  },
  {
    "osm_id": "node/12507634181",
    "nombre": "Al Yugo",
    "direccion": "Avenida Alemania",
    "sector": "Centro",
    "lat": -39.8123959,
    "lon": -73.2449529,
    "categoria_id": 2,
    "telefono": null,
    "instagram": null,
    "horario": null,
    "revisar": true,
    "amenity": "bar",
    "cuisine": null
  },
  {
    "osm_id": "node/12864929800",
    "nombre": "Lovanij Coffee Work",
    "direccion": "Oettinger 66",
    "sector": "Centro",
    "lat": -39.8101761,
    "lon": -73.2529048,
    "categoria_id": 4,
    "telefono": null,
    "instagram": null,
    "horario": "Mo-Fr 09:00-21:00 Sa-Su 09:00-19:00",
    "revisar": false,
    "amenity": "cafe",
    "cuisine": "coffee_shop"
  },
  {
    "osm_id": "node/12952972356",
    "nombre": "Cafefit",
    "direccion": "Zaragoza",
    "sector": "Centro",
    "lat": -39.8311715,
    "lon": -73.241551,
    "categoria_id": 3,
    "telefono": null,
    "instagram": null,
    "horario": null,
    "revisar": true,
    "amenity": "fast_food",
    "cuisine": null
  },
  {
    "osm_id": "node/13076545379",
    "nombre": "Agualda",
    "direccion": "Pasaje Mapu",
    "sector": "Centro",
    "lat": -39.853313,
    "lon": -73.2494499,
    "categoria_id": 3,
    "telefono": null,
    "instagram": null,
    "horario": null,
    "revisar": true,
    "amenity": "fast_food",
    "cuisine": "pizza"
  },
  {
    "osm_id": "node/13233344170",
    "nombre": "Sushi An",
    "direccion": "Yerbas Buenas 412",
    "sector": "Centro",
    "lat": -39.8179752,
    "lon": -73.2448447,
    "categoria_id": 3,
    "telefono": "+56 9 7372 7970",
    "instagram": "sushi__an_delivery",
    "horario": "Mo-Fr 12:30-20:30",
    "revisar": true,
    "amenity": "fast_food",
    "cuisine": "sushi;fries;japanese"
  },
  {
    "osm_id": "node/13288223714",
    "nombre": "Ikigaisushi",
    "direccion": "Pedro de Valdivia",
    "sector": "Centro",
    "lat": -39.8150588,
    "lon": -73.238394,
    "categoria_id": 3,
    "telefono": null,
    "instagram": null,
    "horario": null,
    "revisar": true,
    "amenity": "restaurant",
    "cuisine": "japanese"
  },
  {
    "osm_id": "node/13288223716",
    "nombre": "Santos Sabores",
    "direccion": "Avenida Ramón Picarte",
    "sector": "Centro",
    "lat": -39.8151488,
    "lon": -73.2386529,
    "categoria_id": 4,
    "telefono": null,
    "instagram": null,
    "horario": null,
    "revisar": false,
    "amenity": "cafe",
    "cuisine": null
  },
  {
    "osm_id": "node/13301596637",
    "nombre": "Under Pizza",
    "direccion": null,
    "sector": "Centro",
    "lat": -39.8108188,
    "lon": -73.2517631,
    "categoria_id": 3,
    "telefono": "+56 2 2595 0700",
    "instagram": "https://www.instagram.com/underpizzachile",
    "horario": "Fr-Sa 10:00-02:00; Mo-Th,Su 10:00-24:00",
    "revisar": true,
    "amenity": "fast_food",
    "cuisine": "pizza"
  },
  {
    "osm_id": "node/13541424401",
    "nombre": "Subway",
    "direccion": "Paseo Libertad",
    "sector": "Centro",
    "lat": -39.8137364,
    "lon": -73.2473942,
    "categoria_id": 3,
    "telefono": null,
    "instagram": null,
    "horario": "Mo-Fr 10:30-20:00; Sa-Su 11:00-20:00",
    "revisar": true,
    "amenity": "fast_food",
    "cuisine": "sandwich"
  },
  {
    "osm_id": "node/13625907599",
    "nombre": "Café Lumiere",
    "direccion": "Aníbal Pinto 891",
    "sector": "Centro",
    "lat": -39.8186759,
    "lon": -73.2429834,
    "categoria_id": 4,
    "telefono": null,
    "instagram": null,
    "horario": "Mo-Su 07:30-20:00",
    "revisar": false,
    "amenity": "cafe",
    "cuisine": null
  },
  {
    "osm_id": "node/13685200401",
    "nombre": "La Perla Negra",
    "direccion": null,
    "sector": "Centro",
    "lat": -39.8134422,
    "lon": -73.2482013,
    "categoria_id": 3,
    "telefono": null,
    "instagram": null,
    "horario": null,
    "revisar": true,
    "amenity": "restaurant",
    "cuisine": null
  },
  {
    "osm_id": "node/13685200402",
    "nombre": "Valdiviana",
    "direccion": null,
    "sector": "Centro",
    "lat": -39.8134702,
    "lon": -73.2480016,
    "categoria_id": 3,
    "telefono": null,
    "instagram": null,
    "horario": null,
    "revisar": true,
    "amenity": "restaurant",
    "cuisine": null
  },
  {
    "osm_id": "node/13783705081",
    "nombre": "Mawenche",
    "direccion": "Vicente Pérez Rosales",
    "sector": "Centro",
    "lat": -39.8154235,
    "lon": -73.2466608,
    "categoria_id": 4,
    "telefono": null,
    "instagram": null,
    "horario": null,
    "revisar": false,
    "amenity": "cafe",
    "cuisine": null
  },
  {
    "osm_id": "node/13860814561",
    "nombre": "Ansai Sushi",
    "direccion": "Avenida Circunvalación Sur 2565",
    "sector": "Centro",
    "lat": -39.8445285,
    "lon": -73.2309963,
    "categoria_id": 3,
    "telefono": "+56952328178",
    "instagram": null,
    "horario": null,
    "revisar": true,
    "amenity": "restaurant",
    "cuisine": "sushi"
  },
  {
    "osm_id": "node/13987116202",
    "nombre": "Mar Azul",
    "direccion": "Camilo Henríquez 412",
    "sector": "Centro",
    "lat": -39.8178713,
    "lon": -73.2447425,
    "categoria_id": 3,
    "telefono": "+56999334372",
    "instagram": null,
    "horario": "Mo-Sa 13:00-06:00",
    "revisar": true,
    "amenity": "fast_food",
    "cuisine": "friture"
  },
  {
    "osm_id": "way/123498519",
    "nombre": "Tilo Bar",
    "direccion": "General Lagos 745",
    "sector": "Centro",
    "lat": -39.8167056,
    "lon": -73.2486392,
    "categoria_id": 3,
    "telefono": null,
    "instagram": null,
    "horario": null,
    "revisar": false,
    "amenity": "restaurant",
    "cuisine": "regional"
  },
  {
    "osm_id": "way/124432950",
    "nombre": "Yang Cheng",
    "direccion": "General Lagos 1118",
    "sector": "Centro",
    "lat": -39.8211475,
    "lon": -73.2492267,
    "categoria_id": 3,
    "telefono": null,
    "instagram": null,
    "horario": null,
    "revisar": true,
    "amenity": "restaurant",
    "cuisine": "chinese"
  },
  {
    "osm_id": "way/124801642",
    "nombre": "Zuhause",
    "direccion": "Santiago Bueras 219",
    "sector": "Centro",
    "lat": -39.8280494,
    "lon": -73.2490997,
    "categoria_id": 3,
    "telefono": null,
    "instagram": null,
    "horario": null,
    "revisar": false,
    "amenity": "restaurant",
    "cuisine": "regional"
  },
  {
    "osm_id": "way/124964110",
    "nombre": "La Bomba",
    "direccion": "Caupolicán 594",
    "sector": "Centro",
    "lat": -39.8153624,
    "lon": -73.2441532,
    "categoria_id": 3,
    "telefono": "+56632578663",
    "instagram": null,
    "horario": "Mo-Sa 10:00-23:00; Su 00:00-21:00",
    "revisar": false,
    "amenity": "restaurant",
    "cuisine": "regional"
  },
  {
    "osm_id": "way/126746160",
    "nombre": "La Valdiviana",
    "direccion": "Errázuriz",
    "sector": "Centro",
    "lat": -39.8247039,
    "lon": -73.2290341,
    "categoria_id": 3,
    "telefono": null,
    "instagram": null,
    "horario": null,
    "revisar": false,
    "amenity": "restaurant",
    "cuisine": "regional"
  },
  {
    "osm_id": "way/127263784",
    "nombre": "Camino de Luna",
    "direccion": "Avenida Arturo Prat",
    "sector": "Centro",
    "lat": -39.811202,
    "lon": -73.2478081,
    "categoria_id": 3,
    "telefono": "+56 63 223 4393",
    "instagram": null,
    "horario": "Mo-Su 12:00-24:00",
    "revisar": true,
    "amenity": "restaurant",
    "cuisine": null
  },
  {
    "osm_id": "way/129384916",
    "nombre": "La Casona",
    "direccion": "Avenida Arturo Prat 723",
    "sector": "Centro",
    "lat": -39.8126188,
    "lon": -73.2377077,
    "categoria_id": 3,
    "telefono": null,
    "instagram": null,
    "horario": null,
    "revisar": true,
    "amenity": "restaurant",
    "cuisine": null
  },
  {
    "osm_id": "way/163548339",
    "nombre": "Fogón Palestino",
    "direccion": "Avenida España 507",
    "sector": "Centro",
    "lat": -39.8134829,
    "lon": -73.2304676,
    "categoria_id": 3,
    "telefono": null,
    "instagram": null,
    "horario": null,
    "revisar": true,
    "amenity": "restaurant",
    "cuisine": null
  },
  {
    "osm_id": "way/181669943",
    "nombre": "Shot Karaoke",
    "direccion": "Esmeralda 657",
    "sector": "Centro",
    "lat": -39.8161535,
    "lon": -73.2443704,
    "categoria_id": 2,
    "telefono": "(63) 222 2410",
    "instagram": null,
    "horario": "18:30-03:30",
    "revisar": true,
    "amenity": "bar",
    "cuisine": null
  },
  {
    "osm_id": "way/360584382",
    "nombre": "Café Haussmann",
    "direccion": "Avenida Los Robles 202",
    "sector": "Centro",
    "lat": -39.810502,
    "lon": -73.2536818,
    "categoria_id": 3,
    "telefono": null,
    "instagram": null,
    "horario": null,
    "revisar": true,
    "amenity": "restaurant",
    "cuisine": "german;sandwich"
  },
  {
    "osm_id": "way/368004995",
    "nombre": "Murtao Restaurant",
    "direccion": "Germán Saelzer 020",
    "sector": "Centro",
    "lat": -39.810425,
    "lon": -73.2539836,
    "categoria_id": 1,
    "telefono": "2 541038",
    "instagram": null,
    "horario": "12:00-24:00,00:00-02:00",
    "revisar": false,
    "amenity": "restaurant",
    "cuisine": "parilla;fish;seafood;local"
  },
  {
    "osm_id": "way/374420179",
    "nombre": "Papas Bravas",
    "direccion": null,
    "sector": "Centro",
    "lat": -39.8097084,
    "lon": -73.2515779,
    "categoria_id": 3,
    "telefono": null,
    "instagram": null,
    "horario": null,
    "revisar": true,
    "amenity": "restaurant",
    "cuisine": null
  },
  {
    "osm_id": "way/403859558",
    "nombre": "Los Corelly",
    "direccion": "Aníbal Pinto 1685",
    "sector": "Centro",
    "lat": -39.8233805,
    "lon": -73.2400922,
    "categoria_id": 3,
    "telefono": null,
    "instagram": null,
    "horario": null,
    "revisar": true,
    "amenity": "fast_food",
    "cuisine": null
  },
  {
    "osm_id": "way/403889803",
    "nombre": "Jota",
    "direccion": null,
    "sector": "Centro",
    "lat": -39.8103863,
    "lon": -73.2531011,
    "categoria_id": 3,
    "telefono": null,
    "instagram": null,
    "horario": null,
    "revisar": true,
    "amenity": "restaurant",
    "cuisine": null
  },
  {
    "osm_id": "way/410346877",
    "nombre": "Mercato",
    "direccion": "Avenida Los Robles 100",
    "sector": "Centro",
    "lat": -39.8107688,
    "lon": -73.2519671,
    "categoria_id": 3,
    "telefono": "+56 63 2 625346",
    "instagram": null,
    "horario": "We-Th 12:45-21:00; Fr 12:45-21:30; Sa 12:00-21:00; Su 12:00-20:00",
    "revisar": true,
    "amenity": "restaurant",
    "cuisine": "pasta;pizza;italian"
  },
  {
    "osm_id": "way/434946043",
    "nombre": "Medieval",
    "direccion": "Santiago Bueras 560",
    "sector": "Centro",
    "lat": -39.828766,
    "lon": -73.2446669,
    "categoria_id": 3,
    "telefono": null,
    "instagram": null,
    "horario": null,
    "revisar": true,
    "amenity": "restaurant",
    "cuisine": null
  },
  {
    "osm_id": "way/434950248",
    "nombre": "Fodie",
    "direccion": "General Baquedano",
    "sector": "Centro",
    "lat": -39.8226647,
    "lon": -73.2381428,
    "categoria_id": 3,
    "telefono": null,
    "instagram": null,
    "horario": null,
    "revisar": true,
    "amenity": "fast_food",
    "cuisine": null
  },
  {
    "osm_id": "way/435898979",
    "nombre": "Bar Gamer",
    "direccion": "Beauchef",
    "sector": "Centro",
    "lat": -39.8165039,
    "lon": -73.2432741,
    "categoria_id": 2,
    "telefono": null,
    "instagram": null,
    "horario": null,
    "revisar": true,
    "amenity": "bar",
    "cuisine": null
  },
  {
    "osm_id": "way/435899649",
    "nombre": "Grado 3",
    "direccion": "Esmeralda",
    "sector": "Centro",
    "lat": -39.8167567,
    "lon": -73.2435177,
    "categoria_id": 3,
    "telefono": null,
    "instagram": null,
    "horario": null,
    "revisar": true,
    "amenity": "restaurant",
    "cuisine": "japanese"
  },
  {
    "osm_id": "way/435900193",
    "nombre": "City Bar",
    "direccion": "Esmeralda",
    "sector": "Centro",
    "lat": -39.8160388,
    "lon": -73.2437687,
    "categoria_id": 2,
    "telefono": null,
    "instagram": null,
    "horario": null,
    "revisar": true,
    "amenity": "bar",
    "cuisine": null
  },
  {
    "osm_id": "way/435900417",
    "nombre": "Picamaderos",
    "direccion": "Esmeralda",
    "sector": "Centro",
    "lat": -39.8163857,
    "lon": -73.2436332,
    "categoria_id": 3,
    "telefono": null,
    "instagram": null,
    "horario": null,
    "revisar": true,
    "amenity": "restaurant",
    "cuisine": null
  },
  {
    "osm_id": "way/435900860",
    "nombre": "Nuevo Campesino",
    "direccion": "Arauco",
    "sector": "Centro",
    "lat": -39.8156319,
    "lon": -73.2440873,
    "categoria_id": 3,
    "telefono": null,
    "instagram": null,
    "horario": null,
    "revisar": true,
    "amenity": "restaurant",
    "cuisine": null
  },
  {
    "osm_id": "way/436321165",
    "nombre": "Mar y Copas",
    "direccion": "Chacabuco",
    "sector": "Centro",
    "lat": -39.8135442,
    "lon": -73.242538,
    "categoria_id": 3,
    "telefono": null,
    "instagram": null,
    "horario": null,
    "revisar": false,
    "amenity": "restaurant",
    "cuisine": "regional"
  },
  {
    "osm_id": "way/436494491",
    "nombre": "Bimba",
    "direccion": "Independencia 543",
    "sector": "Centro",
    "lat": -39.8142932,
    "lon": -73.2473269,
    "categoria_id": 2,
    "telefono": null,
    "instagram": null,
    "horario": null,
    "revisar": true,
    "amenity": "bar",
    "cuisine": null
  },
  {
    "osm_id": "way/462199092",
    "nombre": "Chile Güey (Mexicana)",
    "direccion": "Carlos Anwandter 288 B",
    "sector": "Centro",
    "lat": -39.8095825,
    "lon": -73.2445455,
    "categoria_id": 3,
    "telefono": null,
    "instagram": null,
    "horario": null,
    "revisar": true,
    "amenity": "restaurant",
    "cuisine": "thai"
  },
  {
    "osm_id": "way/463264035",
    "nombre": "Fogón Sureño",
    "direccion": "Janequeo 382",
    "sector": "Centro",
    "lat": -39.8108863,
    "lon": -73.2435091,
    "categoria_id": 3,
    "telefono": null,
    "instagram": null,
    "horario": null,
    "revisar": false,
    "amenity": "restaurant",
    "cuisine": "regional"
  },
  {
    "osm_id": "way/463267573",
    "nombre": "1960",
    "direccion": "Santiago Bueras",
    "sector": "Centro",
    "lat": -39.8280173,
    "lon": -73.2478621,
    "categoria_id": 2,
    "telefono": null,
    "instagram": null,
    "horario": null,
    "revisar": true,
    "amenity": "bar",
    "cuisine": null
  },
  {
    "osm_id": "way/478362884",
    "nombre": "Salon Pool",
    "direccion": "Tornagaleones",
    "sector": "Niebla",
    "lat": -39.863698,
    "lon": -73.393005,
    "categoria_id": 3,
    "telefono": null,
    "instagram": null,
    "horario": null,
    "revisar": true,
    "amenity": "restaurant",
    "cuisine": null
  },
  {
    "osm_id": "way/478363826",
    "nombre": "La Huella Restaurante",
    "direccion": "Tornagaleones 105",
    "sector": "Niebla",
    "lat": -39.863123,
    "lon": -73.3948058,
    "categoria_id": 3,
    "telefono": "+56632200354",
    "instagram": null,
    "horario": "Tu-Su 11:00-20:00",
    "revisar": false,
    "amenity": "restaurant",
    "cuisine": "regional"
  },
  {
    "osm_id": "way/489067586",
    "nombre": "Tesoro del Mar",
    "direccion": "Paseo Libertad",
    "sector": "Centro",
    "lat": -39.8134678,
    "lon": -73.2473602,
    "categoria_id": 3,
    "telefono": null,
    "instagram": null,
    "horario": null,
    "revisar": true,
    "amenity": "restaurant",
    "cuisine": null
  },
  {
    "osm_id": "way/504127071",
    "nombre": "Restaurant Escuela Liceo Tecnico",
    "direccion": null,
    "sector": "Centro",
    "lat": -39.8298902,
    "lon": -73.2218198,
    "categoria_id": 3,
    "telefono": null,
    "instagram": null,
    "horario": null,
    "revisar": true,
    "amenity": "restaurant",
    "cuisine": null
  },
  {
    "osm_id": "way/515094914",
    "nombre": "Café La Motoneta",
    "direccion": "Del Castillo",
    "sector": "Niebla",
    "lat": -39.8707172,
    "lon": -73.4000375,
    "categoria_id": 4,
    "telefono": null,
    "instagram": null,
    "horario": null,
    "revisar": false,
    "amenity": "cafe",
    "cuisine": null
  },
  {
    "osm_id": "way/515100623",
    "nombre": "Indio Pije",
    "direccion": "Del Castillo",
    "sector": "Niebla",
    "lat": -39.8644409,
    "lon": -73.3934469,
    "categoria_id": 3,
    "telefono": null,
    "instagram": null,
    "horario": null,
    "revisar": true,
    "amenity": "restaurant",
    "cuisine": null
  },
  {
    "osm_id": "way/515109590",
    "nombre": "La Terraza",
    "direccion": null,
    "sector": "Niebla",
    "lat": -39.8583397,
    "lon": -73.3907973,
    "categoria_id": 3,
    "telefono": null,
    "instagram": null,
    "horario": null,
    "revisar": true,
    "amenity": "restaurant",
    "cuisine": null
  },
  {
    "osm_id": "way/515125962",
    "nombre": "Entre Costa",
    "direccion": "Carlos Antonio Duce",
    "sector": "Niebla",
    "lat": -39.8741242,
    "lon": -73.3956779,
    "categoria_id": 1,
    "telefono": null,
    "instagram": null,
    "horario": null,
    "revisar": false,
    "amenity": "restaurant",
    "cuisine": "regional;seafood;fish"
  },
  {
    "osm_id": "way/517476351",
    "nombre": "La Herradura",
    "direccion": null,
    "sector": "Las Gaviotas",
    "lat": -39.8902085,
    "lon": -73.3907443,
    "categoria_id": 3,
    "telefono": null,
    "instagram": null,
    "horario": null,
    "revisar": true,
    "amenity": "restaurant",
    "cuisine": null
  },
  {
    "osm_id": "way/520371089",
    "nombre": "Entre Faros",
    "direccion": "Ruta T-350",
    "sector": "Niebla",
    "lat": -39.8628663,
    "lon": -73.3559654,
    "categoria_id": 3,
    "telefono": "+56 63 228 2888",
    "instagram": null,
    "horario": null,
    "revisar": true,
    "amenity": "restaurant",
    "cuisine": null
  },
  {
    "osm_id": "way/542667089",
    "nombre": "Casa Negra",
    "direccion": "Aníbal Pinto 1965",
    "sector": "Centro",
    "lat": -39.8267801,
    "lon": -73.2399082,
    "categoria_id": 3,
    "telefono": null,
    "instagram": null,
    "horario": "Mo-Th 08:30-22:00; Fr 08:30-00:00; Sa 12:00-00:00",
    "revisar": true,
    "amenity": "restaurant",
    "cuisine": null
  },
  {
    "osm_id": "way/547270704",
    "nombre": "Mistura Limeña",
    "direccion": "Avenida Ramón Picarte 3560",
    "sector": "Centro",
    "lat": -39.8415033,
    "lon": -73.2039137,
    "categoria_id": 3,
    "telefono": "+56941259806",
    "instagram": null,
    "horario": null,
    "revisar": false,
    "amenity": "restaurant",
    "cuisine": "regional"
  },
  {
    "osm_id": "way/549026327",
    "nombre": "McDonald's",
    "direccion": "O'Higgins 428",
    "sector": "Centro",
    "lat": -39.8130719,
    "lon": -73.2462655,
    "categoria_id": 3,
    "telefono": null,
    "instagram": null,
    "horario": null,
    "revisar": true,
    "amenity": "fast_food",
    "cuisine": "burger"
  },
  {
    "osm_id": "way/574636138",
    "nombre": "La Cevichería",
    "direccion": "Yerbas Buenas",
    "sector": "Centro",
    "lat": -39.8179946,
    "lon": -73.2471587,
    "categoria_id": 3,
    "telefono": null,
    "instagram": null,
    "horario": null,
    "revisar": true,
    "amenity": "restaurant",
    "cuisine": null
  },
  {
    "osm_id": "way/576877651",
    "nombre": "La Picá de Cochrane",
    "direccion": "Lord Cochrane",
    "sector": "Centro",
    "lat": -39.8193768,
    "lon": -73.246437,
    "categoria_id": 3,
    "telefono": null,
    "instagram": null,
    "horario": null,
    "revisar": true,
    "amenity": "restaurant",
    "cuisine": null
  },
  {
    "osm_id": "way/584266023",
    "nombre": "Cioccolato",
    "direccion": "Avenida Los Robles",
    "sector": "Centro",
    "lat": -39.8103618,
    "lon": -73.254416,
    "categoria_id": 4,
    "telefono": null,
    "instagram": null,
    "horario": null,
    "revisar": false,
    "amenity": "cafe",
    "cuisine": null
  },
  {
    "osm_id": "way/589974757",
    "nombre": "Dasud",
    "direccion": "Los Helechos 775",
    "sector": "Centro",
    "lat": -39.8079887,
    "lon": -73.2623629,
    "categoria_id": 3,
    "telefono": null,
    "instagram": null,
    "horario": "Tu-Su 13:00-22:30; Su 13:00-17:30",
    "revisar": true,
    "amenity": "restaurant",
    "cuisine": "pizza;pasta"
  },
  {
    "osm_id": "way/601893447",
    "nombre": "La Pizzeria de Renzo",
    "direccion": "Germán Saelzer",
    "sector": "Centro",
    "lat": -39.8101077,
    "lon": -73.2537759,
    "categoria_id": 3,
    "telefono": "+63 2347400",
    "instagram": null,
    "horario": null,
    "revisar": true,
    "amenity": "restaurant",
    "cuisine": "pizza"
  },
  {
    "osm_id": "way/602726678",
    "nombre": "La Última Frontera",
    "direccion": "Los Tilos 91",
    "sector": "Centro",
    "lat": -39.8087433,
    "lon": -73.2550172,
    "categoria_id": 3,
    "telefono": null,
    "instagram": null,
    "horario": null,
    "revisar": false,
    "amenity": "restaurant",
    "cuisine": "sandwich;regional"
  },
  {
    "osm_id": "way/619631422",
    "nombre": "Cava",
    "direccion": "Avenida Los Robles 071",
    "sector": "Centro",
    "lat": -39.8112257,
    "lon": -73.251614,
    "categoria_id": 2,
    "telefono": null,
    "instagram": null,
    "horario": null,
    "revisar": true,
    "amenity": "bar",
    "cuisine": null
  },
  {
    "osm_id": "way/619631424",
    "nombre": "Mia",
    "direccion": "Avenida Los Robles",
    "sector": "Centro",
    "lat": -39.8111878,
    "lon": -73.2518101,
    "categoria_id": 3,
    "telefono": null,
    "instagram": null,
    "horario": null,
    "revisar": true,
    "amenity": "restaurant",
    "cuisine": null
  },
  {
    "osm_id": "way/623143659",
    "nombre": "Patagonia Donuts",
    "direccion": "Rocura 15",
    "sector": "Centro",
    "lat": -39.8095615,
    "lon": -73.2168553,
    "categoria_id": 4,
    "telefono": null,
    "instagram": null,
    "horario": null,
    "revisar": false,
    "amenity": "cafe",
    "cuisine": null
  },
  {
    "osm_id": "way/711522507",
    "nombre": "Carezza",
    "direccion": "Aníbal Pinto 2160",
    "sector": "Centro",
    "lat": -39.8294811,
    "lon": -73.2404725,
    "categoria_id": 4,
    "telefono": "+56985477667",
    "instagram": null,
    "horario": null,
    "revisar": false,
    "amenity": "cafe",
    "cuisine": null
  },
  {
    "osm_id": "way/729894160",
    "nombre": "Entre Mar y Tierra",
    "direccion": "Carlos Anwandter 802",
    "sector": "Centro",
    "lat": -39.8140369,
    "lon": -73.2377133,
    "categoria_id": 1,
    "telefono": null,
    "instagram": null,
    "horario": null,
    "revisar": false,
    "amenity": "restaurant",
    "cuisine": "regional;seafood"
  },
  {
    "osm_id": "way/744339569",
    "nombre": "Corazón Contento",
    "direccion": "Arauco 958",
    "sector": "Centro",
    "lat": -39.8169484,
    "lon": -73.2361238,
    "categoria_id": 3,
    "telefono": "+56977073626",
    "instagram": null,
    "horario": null,
    "revisar": true,
    "amenity": "restaurant",
    "cuisine": "pizza"
  },
  {
    "osm_id": "way/771222199",
    "nombre": "Animeños",
    "direccion": "Pedro Aguirre Cerda",
    "sector": "Centro",
    "lat": -39.8153981,
    "lon": -73.2252193,
    "categoria_id": 2,
    "telefono": null,
    "instagram": null,
    "horario": null,
    "revisar": true,
    "amenity": "bar",
    "cuisine": null
  },
  {
    "osm_id": "way/772308053",
    "nombre": "La Casona",
    "direccion": "Lord Cochrane 391",
    "sector": "Centro",
    "lat": -39.8195053,
    "lon": -73.2454218,
    "categoria_id": 3,
    "telefono": null,
    "instagram": "lacasonabarriosbajos",
    "horario": "19:00-22:00",
    "revisar": true,
    "amenity": "restaurant",
    "cuisine": "fries;burger;sandwich;hot_dog"
  },
  {
    "osm_id": "way/772308054",
    "nombre": "Pastas Trigo",
    "direccion": "Lord Cochrane 375",
    "sector": "Centro",
    "lat": -39.8195185,
    "lon": -73.2456653,
    "categoria_id": 3,
    "telefono": null,
    "instagram": "pastastrigovaldivia",
    "horario": "Mo-Sa 12:00-22:30; Su 12:00-18:30",
    "revisar": true,
    "amenity": "restaurant",
    "cuisine": "pasta;soup"
  },
  {
    "osm_id": "way/776815181",
    "nombre": "Valdi Lomits",
    "direccion": "General Lagos",
    "sector": "Centro",
    "lat": -39.8205946,
    "lon": -73.2492407,
    "categoria_id": 3,
    "telefono": null,
    "instagram": null,
    "horario": null,
    "revisar": true,
    "amenity": "fast_food",
    "cuisine": "sandwich;burger"
  },
  {
    "osm_id": "way/827234735",
    "nombre": "Espacio Cocina",
    "direccion": "Arturo Gunther",
    "sector": "Centro",
    "lat": -39.8299214,
    "lon": -73.2376971,
    "categoria_id": 3,
    "telefono": null,
    "instagram": null,
    "horario": null,
    "revisar": true,
    "amenity": "restaurant",
    "cuisine": null
  },
  {
    "osm_id": "way/851088957",
    "nombre": "Puerto Canelos",
    "direccion": "Carampangue 636",
    "sector": "Centro",
    "lat": -39.8127318,
    "lon": -73.2402489,
    "categoria_id": 3,
    "telefono": null,
    "instagram": null,
    "horario": null,
    "revisar": false,
    "amenity": "restaurant",
    "cuisine": "regional"
  },
  {
    "osm_id": "way/932019172",
    "nombre": "Cafetería EntreLagos",
    "direccion": "Vicente Pérez Rosales",
    "sector": "Centro",
    "lat": -39.8155333,
    "lon": -73.2464023,
    "categoria_id": 4,
    "telefono": null,
    "instagram": null,
    "horario": null,
    "revisar": false,
    "amenity": "cafe",
    "cuisine": null
  },
  {
    "osm_id": "way/932019173",
    "nombre": "Café Restaurante Cosas Ricas",
    "direccion": "Vicente Pérez Rosales 644",
    "sector": "Centro",
    "lat": -39.8156387,
    "lon": -73.2464432,
    "categoria_id": 4,
    "telefono": null,
    "instagram": null,
    "horario": null,
    "revisar": false,
    "amenity": "cafe",
    "cuisine": null
  },
  {
    "osm_id": "way/933649932",
    "nombre": "Las Sabrosas",
    "direccion": "Anfión Muñoz",
    "sector": "Centro",
    "lat": -39.8171064,
    "lon": -73.2374596,
    "categoria_id": 3,
    "telefono": null,
    "instagram": null,
    "horario": null,
    "revisar": true,
    "amenity": "fast_food",
    "cuisine": null
  },
  {
    "osm_id": "way/944948417",
    "nombre": "Cafetería y Pastelería",
    "direccion": "Carlos Bennett",
    "sector": "Centro",
    "lat": -39.8286613,
    "lon": -73.2397026,
    "categoria_id": 4,
    "telefono": null,
    "instagram": null,
    "horario": null,
    "revisar": false,
    "amenity": "cafe",
    "cuisine": "sandwich;pastel;coffee_shop"
  },
  {
    "osm_id": "way/1014099094",
    "nombre": "Upita!",
    "direccion": "Avenida Los Robles",
    "sector": "Centro",
    "lat": -39.8108192,
    "lon": -73.251379,
    "categoria_id": 3,
    "telefono": null,
    "instagram": null,
    "horario": null,
    "revisar": true,
    "amenity": "fast_food",
    "cuisine": "coffee_shop"
  },
  {
    "osm_id": "way/1089518205",
    "nombre": "Cromo Café",
    "direccion": "Phillippi 921",
    "sector": "Centro",
    "lat": -39.8195946,
    "lon": -73.2455245,
    "categoria_id": 4,
    "telefono": null,
    "instagram": null,
    "horario": null,
    "revisar": false,
    "amenity": "cafe",
    "cuisine": null
  },
  {
    "osm_id": "way/1093454061",
    "nombre": "Apetitizos",
    "direccion": "Avenida Francia",
    "sector": "Centro",
    "lat": -39.8351828,
    "lon": -73.2183242,
    "categoria_id": 3,
    "telefono": null,
    "instagram": null,
    "horario": null,
    "revisar": true,
    "amenity": "fast_food",
    "cuisine": "burger"
  },
  {
    "osm_id": "way/1112593530",
    "nombre": "La Parrilla de Thor",
    "direccion": "Avenida Arturo Prat 653",
    "sector": "Centro",
    "lat": -39.811501,
    "lon": -73.2392063,
    "categoria_id": 3,
    "telefono": null,
    "instagram": null,
    "horario": null,
    "revisar": true,
    "amenity": "restaurant",
    "cuisine": "steak_house"
  },
  {
    "osm_id": "way/1123426054",
    "nombre": "Café Latinoamericano",
    "direccion": "Carlos Anwandter",
    "sector": "Centro",
    "lat": -39.8118762,
    "lon": -73.2408357,
    "categoria_id": 4,
    "telefono": null,
    "instagram": null,
    "horario": null,
    "revisar": false,
    "amenity": "cafe",
    "cuisine": null
  },
  {
    "osm_id": "way/1224661585",
    "nombre": "Medieval",
    "direccion": "Santiago Bueras 560",
    "sector": "Centro",
    "lat": -39.8286763,
    "lon": -73.2443991,
    "categoria_id": 3,
    "telefono": null,
    "instagram": null,
    "horario": null,
    "revisar": true,
    "amenity": "restaurant",
    "cuisine": null
  },
  {
    "osm_id": "way/1347418444",
    "nombre": "Minory",
    "direccion": "Avenida Ecuador",
    "sector": "Centro",
    "lat": -39.8243018,
    "lon": -73.2179185,
    "categoria_id": 3,
    "telefono": "+56632210200",
    "instagram": null,
    "horario": null,
    "revisar": true,
    "amenity": "restaurant",
    "cuisine": "chinese"
  },
  {
    "osm_id": "way/1497588826",
    "nombre": "La Calesa",
    "direccion": "Avenida Pedro Montt",
    "sector": "Centro",
    "lat": -39.8368898,
    "lon": -73.2342871,
    "categoria_id": 3,
    "telefono": null,
    "instagram": null,
    "horario": null,
    "revisar": true,
    "amenity": "restaurant",
    "cuisine": "peruvian"
  }
]